City_ID,City,Lat,Lng,Max Temp,Humidity,Cloudiness,Wind Speed,Country,Date
0,jamestown,42.097,-79.2353,49.64,52,0,6.91,US,1742367002
1,yellowknife,62.456,-114.3525,-5.28,71,40,6.91,CA,1742367004
2,bredasdorp,-34.5322,20.0403,72.63,61,0,5.48,ZA,1742367005
3,waitangi,-43.9535,-176.5597,63.82,94,37,3.0,NZ,1742367006
4,college,64.8569,-147.8028,14.07,63,75,10.36,US,1742367007
5,kruisfontein,-34.0033,24.7314,78.15,44,0,3.24,ZA,1742367009
6,nasirabad,26.3,74.7333,88.0,11,0,9.86,IN,1742367010
7,luckau,51.85,13.7167,37.6,45,0,4.0,DE,1742367011
8,grytviken,-54.2811,-36.5092,42.66,93,100,12.53,GS,1742367012
9,huarmey,-10.0681,-78.1522,71.96,83,100,6.71,PE,1742367013
10,sisimiut,66.9395,-53.6735,19.65,94,100,8.1,GL,1742367015
11,dudinka,69.4058,86.1778,13.5,93,100,14.56,RU,1742367016
12,kavalerovo,44.2661,135.0572,33.24,34,99,9.84,RU,1742366728
13,edinburgh of the seven seas,-37.0676,-12.3116,56.03,63,99,19.46,SH,1742367018
14,ilulissat,69.2167,-51.1,28.42,50,47,16.11,GL,1742366850
15,port-aux-francais,-49.35,70.2167,42.53,81,40,27.85,TF,1742367020
16,invercargill,-46.4,168.35,61.02,76,6,5.01,NZ,1742367022
17,klyuchi,52.2667,79.1667,38.91,93,42,11.23,RU,1742367023
18,st. john's,47.5649,-52.7093,49.28,94,75,8.05,CA,1742367024
19,zeya,53.75,127.2667,30.65,88,100,2.84,RU,1742367025
20,minas de marcona,-15.2119,-75.1103,63.84,75,100,7.78,PE,1742367026
21,bikenibeu village,1.3673,173.1241,84.16,84,75,9.22,KI,1742367027
22,papatowai,-46.5619,169.4708,55.42,80,29,4.76,NZ,1742367028
23,villa gesell,-37.2639,-56.973,62.17,71,32,12.17,AR,1742367030
24,qaqortoq,60.7167,-46.0333,27.86,91,93,15.75,GL,1742367031
25,stanley,54.868,-1.6985,28.24,100,0,0.0,GB,1742367032
26,hermanus,-34.4187,19.2345,74.8,55,0,4.03,ZA,1742367033
27,kapa'a,22.0752,-159.319,75.52,88,75,13.8,US,1742367034
28,chhabra,24.6667,76.8333,91.85,12,0,5.1,IN,1742367036
29,albany,42.6001,-73.9662,35.55,69,0,1.05,US,1742367037
30,west island,-12.1568,96.8225,82.38,89,75,16.11,CC,1742367038
31,adamstown,-25.066,-130.1015,76.87,72,18,3.65,PN,1742367039
32,wailua homesteads,22.0669,-159.378,74.19,88,75,13.8,US,1742367041
33,anadyr,64.75,177.4833,-12.5,77,0,6.71,RU,1742367042
34,kirakira,-10.4544,161.9205,83.25,83,100,8.88,SB,1742367043
35,carnarvon,-24.8667,113.6333,80.47,63,0,23.89,AU,1742367044
36,chuka,-0.3332,37.6459,71.06,73,83,3.91,KE,1742366875
37,thunder bay,48.4001,-89.3168,22.98,93,40,2.3,CA,1742367046
38,blackmans bay,-43.0167,147.3167,71.73,65,100,1.99,AU,1742367047
39,monrovia,6.3005,-10.7969,77.77,93,100,6.42,LR,1742367049
40,kapuskasing,49.4169,-82.4331,30.29,93,100,4.61,CA,1742367050
41,geraldton,-28.7667,114.6,79.21,53,0,27.63,AU,1742367051
42,tiksi,71.6872,128.8694,8.42,87,100,9.4,RU,1742367052
43,plastun,44.7561,136.2939,34.74,36,100,4.65,RU,1742367053
44,bethel,41.3712,-73.414,40.03,70,0,1.99,US,1742367054
45,ushuaia,-54.8,-68.3,55.06,62,75,28.77,AR,1742367056
46,kourou,5.1552,-52.6478,76.6,89,99,5.32,GF,1742367057
47,alice springs,-23.7,133.8833,90.95,27,100,10.36,AU,1742367058
48,lihue,21.9789,-159.3672,74.79,88,75,13.8,US,1742367059
49,vilyuchinsk,52.9306,158.4028,30.47,71,100,14.76,RU,1742367060
50,haiku-pauwela,20.9219,-156.3051,73.26,76,40,11.99,US,1742367062
51,ribeira grande,38.5167,-28.7,54.77,62,40,26.46,PT,1742367063
52,constantia,44.1833,28.65,34.7,43,8,17.47,RO,1742367064
53,pioner,55.3166,85.9508,47.64,53,0,8.95,RU,1742367065
54,nchelenge,-9.3451,28.734,71.11,81,100,5.12,ZM,1742367066
55,afaahiti,-17.75,-149.2833,80.26,78,35,11.7,PF,1742367067
56,port lincoln,-34.7333,135.8667,79.72,43,3,4.63,AU,1742367069
57,pathein,16.7833,94.7333,102.13,20,97,14.25,MM,1742367070
58,vorgashor,67.5833,63.95,12.11,89,67,14.32,RU,1742367071
59,cidreira,-30.1811,-50.2056,66.33,91,19,8.12,BR,1742367072
60,petropavlovsk-kamchatsky,53.0452,158.6483,28.99,31,20,8.95,RU,1742367075
61,talnakh,69.4865,88.3972,11.62,93,100,8.95,RU,1742367076
62,rikaze,29.25,88.8833,51.73,8,1,9.93,CN,1742367077
63,kalevala,65.2,31.1667,25.14,80,0,17.11,RU,1742367078
64,la'ie,21.6477,-157.9253,74.59,83,100,5.01,US,1742367079
65,okhotsk,59.3833,143.3,9.1,75,6,0.4,RU,1742367080
66,utrik,11.2278,169.8474,80.44,80,23,22.75,MH,1742367082
67,darnah,32.767,22.6367,56.71,79,100,24.96,LY,1742367083
68,oslo,59.9127,10.7461,34.25,75,99,2.64,NO,1742366863
69,thompson,55.7435,-97.8558,-2.04,84,0,2.3,CA,1742367085
70,margaret river,-33.95,115.0667,67.77,51,0,17.47,AU,1742367086
71,la gi,10.6667,107.7833,85.01,59,3,28.74,VN,1742367087
72,berdigestyakh,62.0989,126.6992,18.86,89,100,7.96,RU,1742367089
73,shevchenko,48.5,35.0,35.47,49,7,8.46,UA,1742367090
74,yurga,55.7231,84.8861,37.2,100,100,11.97,RU,1742367091
75,umba,66.6871,34.3429,29.57,76,100,22.5,RU,1742367092
76,khandyga,62.6667,135.6,5.88,81,78,1.72,RU,1742367093
77,terryville,40.909,-73.0651,40.48,75,0,4.18,US,1742367095
78,viedma,-40.8135,-62.9967,56.21,71,8,10.69,AR,1742367096
79,tazacorte,28.629,-17.9293,65.37,89,100,6.91,ES,1742367097
80,okha,53.5739,142.9478,14.4,87,79,3.38,RU,1742367098
81,sao joao da barra,-21.6403,-41.0511,75.4,92,95,3.78,BR,1742367099
82,tumpat,6.1978,102.171,87.78,66,40,12.66,MY,1742367100
83,badger,64.8,-147.5333,13.98,62,75,10.36,US,1742367102
84,port elizabeth,-33.918,25.5701,74.32,82,0,4.61,ZA,1742367103
85,georgetown,5.4112,100.3354,96.73,36,20,13.0,MY,1742367074
86,bilibino,68.0546,166.4372,-12.21,81,7,4.81,RU,1742367105
87,puerto natales,-51.7236,-72.4875,45.0,96,100,7.31,CL,1742367106
88,hawaiian paradise park,19.5933,-154.9731,72.91,92,20,3.44,US,1742367107
89,puerto esperanza,-26.0152,-54.6731,65.34,67,0,2.57,AR,1742367109
90,brive-la-gaillarde,45.25,1.5,48.16,74,100,7.2,FR,1742367110
91,uturoa,-16.7333,-151.4333,83.39,74,16,11.43,PF,1742367112
92,karatau,43.1667,70.4667,67.89,25,0,4.0,KZ,1742367113
93,yuzhno-kurilsk,44.0306,145.8556,30.49,75,98,7.81,RU,1742367114
94,hamilton,39.1834,-84.5333,62.98,43,0,10.36,US,1742367116
95,vila velha,-20.3297,-40.2925,73.35,100,0,2.3,BR,1742367117
96,padang,-0.9492,100.3543,86.05,77,100,5.01,ID,1742367118
97,newman,37.3138,-121.0208,46.06,83,10,1.01,US,1742367119
98,moree,-29.4667,149.85,87.26,35,29,4.61,AU,1742367120
99,cole harbour,44.6724,-63.4751,35.08,93,100,12.66,CA,1742367121
100,tazovsky,67.4667,78.7,12.38,87,25,15.01,RU,1742367123
101,ondjiva,-17.0667,15.7333,65.34,96,100,3.42,AO,1742367124
102,port mathurin,-19.6833,63.4167,81.93,76,44,17.67,MU,1742367125
103,fort bragg,35.139,-79.006,48.79,72,0,0.0,US,1742367126
104,prince george,53.9166,-122.753,31.44,58,75,5.75,CA,1742367096
105,puerto ayora,-0.7393,-90.3518,80.55,94,98,5.99,EC,1742367128
106,polyarnyy,69.1989,33.4478,28.18,55,99,28.74,RU,1742367130
107,san julian,21.0167,-102.1667,58.78,33,0,9.19,MX,1742367131
108,inhambane,-23.865,35.3833,73.38,94,75,6.91,MZ,1742367132
109,sault ste. marie,46.5168,-84.3333,37.69,75,100,10.36,CA,1742367133
110,la passe,45.5549,-0.8967,50.72,79,99,18.7,FR,1742367134
111,coronel suarez,-37.4547,-61.9334,53.01,90,0,7.92,AR,1742367135
112,kodiak,57.79,-152.4072,35.11,80,100,8.05,US,1742367137
113,iqaluit,63.7506,-68.5145,-2.47,60,20,9.22,CA,1742367138
114,andergrove,-21.0833,149.1833,76.39,79,100,14.7,AU,1742367140
115,cabedelo,-6.9811,-34.8339,75.87,78,73,9.1,BR,1742367141
116,karatuzskoye,53.6072,92.8667,35.15,99,100,5.28,RU,1742367144
117,wewak,-3.5534,143.6268,84.42,71,18,8.86,PG,1742367145
118,remire-montjoly,4.9167,-52.2667,78.84,89,75,4.61,GF,1742367146
119,withernsea,53.7311,0.0335,32.95,80,0,7.31,GB,1742367147
120,shangqiu,34.45,115.65,65.34,21,0,8.66,CN,1742367150
121,embi,48.8264,58.1442,60.58,48,100,14.27,KZ,1742367151
122,saint-pierre,-21.3393,55.4781,83.88,79,20,23.02,RE,1742367152
123,mazouna,36.1223,0.8987,51.53,71,0,6.24,DZ,1742367153
124,harper,4.375,-7.7169,78.46,88,100,7.34,LR,1742367155
125,opochka,56.7105,28.6617,39.09,71,12,11.9,RU,1742367156
126,keflavik,64.0049,-22.5624,43.23,100,75,12.66,IS,1742367157
127,varzea grande,-15.6467,-56.1325,76.87,94,40,3.44,BR,1742367158
128,chipinge,-20.1883,32.6236,65.19,82,82,3.0,ZW,1742367159
129,roxas,11.5853,122.7511,82.54,78,33,10.83,PH,1742367160
130,suva,-18.1416,178.4415,81.88,89,75,2.3,FJ,1742367161
131,antalaha,-14.9003,50.2788,79.84,86,98,2.86,MG,1742367163
132,papao,-17.75,-149.55,80.28,76,6,12.33,PF,1742367164
133,humaita,-7.5061,-63.0208,73.02,99,100,2.37,BR,1742367165
134,isafjordur,66.0755,-23.124,36.25,92,100,9.13,IS,1742367166
135,karratha,-20.7377,116.8463,91.94,51,100,12.59,AU,1742367167
136,taoudenni,22.6783,-3.9836,74.26,12,19,6.73,ML,1742367168
137,howard springs,-12.497,131.047,78.71,99,100,2.66,AU,1742367170
138,whitehorse,60.7161,-135.0538,23.77,68,20,10.36,CA,1742367171
139,sovetskaya gavan',48.9723,140.2878,25.79,71,100,5.3,RU,1742367172
140,rio grande,-32.035,-52.0986,65.41,87,0,7.4,BR,1742367173
141,altai,46.3722,96.2583,26.64,36,0,3.44,MN,1742367174
142,iskateley,67.6803,53.1512,17.44,89,100,23.2,RU,1742367175
143,new norfolk,-42.7826,147.0587,71.71,42,90,4.72,AU,1742367177
144,ciudad bolivar,8.1222,-63.5497,78.71,73,62,9.78,VE,1742367178
145,pisco,-13.7,-76.2167,71.65,83,100,4.61,PE,1742367179
146,santa ana,33.7456,-117.8678,54.93,75,0,3.44,US,1742367180
147,ngambe,4.2333,10.6167,73.74,89,100,0.65,CM,1742367182
148,oppdal,62.5943,9.6912,34.72,97,100,4.7,NO,1742367184
149,diego de almagro,-26.3667,-70.05,59.56,65,0,2.82,CL,1742367187
150,si sa ket,14.8333,104.3333,89.46,33,79,12.12,TH,1742367189
151,hasaki,35.7333,140.8333,48.24,54,90,26.55,JP,1742367190
152,barra do corda,-5.5,-45.25,71.15,99,35,2.55,BR,1742367191
153,novodvinsk,64.4165,40.8122,31.75,88,100,10.83,RU,1742367192
154,udachny,66.4167,112.4,26.67,86,100,15.17,RU,1742367193
155,acarau,-2.8856,-40.12,76.39,86,96,3.15,BR,1742367194
156,wuhai,39.6647,106.8122,51.66,11,9,13.04,CN,1742367195
157,ulverstone,-41.15,146.1667,66.72,76,0,3.47,AU,1742367197
158,dhidhdhoo,6.8833,73.1,83.35,72,12,4.92,MV,1742367199
159,nouadhibou,20.931,-17.0347,60.78,82,0,17.27,MR,1742367200
160,quellon,-43.1167,-73.6167,48.36,80,13,8.12,CL,1742367201
161,mount gambier,-37.8333,140.7667,82.6,16,0,9.26,AU,1742367203
162,manchester,53.4809,-2.2374,33.84,83,57,3.47,GB,1742366938
163,alaghsas,17.0187,8.0168,73.29,11,0,8.05,NE,1742367205
164,san patricio,28.017,-97.5169,69.75,85,11,21.63,US,1742367206
165,korla,41.7597,86.1469,51.91,22,0,4.29,CN,1742367207
166,tateyama,34.9833,139.8667,49.24,61,100,11.72,JP,1742367208
167,kargasok,59.0556,80.8572,32.47,98,100,3.83,RU,1742367210
168,flying fish cove,-10.4217,105.6791,83.88,83,100,12.66,CX,1742367211
169,san vicente,-26.6167,-54.1333,61.12,75,0,3.67,AR,1742367212
170,saudarkrokur,65.7461,-19.6394,36.59,86,100,11.1,IS,1742367213
171,kayangel,8.0823,134.7173,82.92,79,100,13.71,PW,1742367214
172,arkhangel'sk,64.5401,40.5433,32.11,86,100,8.95,RU,1742367215
173,susuman,62.7833,148.1667,-0.38,85,100,1.92,RU,1742367217
174,armacao de buzios,-22.7469,-41.8817,73.65,90,100,5.3,BR,1742367218
175,chibougamau,49.9168,-74.3659,13.62,100,0,4.61,CA,1742367219
176,oranjemund,-28.55,16.4333,71.31,67,23,1.66,NA,1742367222
177,saarijarvi,62.7049,25.254,32.16,76,8,13.02,FI,1742367223
178,gadzhiyevo,69.2551,33.3362,28.27,55,99,27.04,RU,1742367224
179,vorkuta,67.5,64.0,13.03,88,56,13.98,RU,1742367225
180,olyokminsk,60.3736,120.4264,35.47,99,100,9.08,RU,1742367226
181,rehoboth,-23.3167,17.0833,67.24,79,100,9.06,NA,1742367227
182,kroya,-7.6331,109.2461,81.34,79,100,2.75,ID,1742367230
183,pedernales,18.0384,-71.744,76.46,69,8,4.25,DO,1742367231
184,taltal,-25.4,-70.4833,63.88,84,87,3.76,CL,1742367232
185,peniche,39.3558,-9.3811,59.2,86,100,31.38,PT,1742367233
186,la ronge,55.1001,-105.2842,8.85,66,100,2.3,CA,1742367234
187,lazaro cardenas,17.9583,-102.2,71.6,85,0,3.06,MX,1742367236
188,tisul',55.7611,88.3122,47.3,70,96,15.93,RU,1742367237
189,port alfred,-33.5906,26.891,73.18,87,0,7.31,ZA,1742367238
190,avarua,-21.2078,-159.775,82.45,74,20,9.22,CK,1742367240
191,guerrero negro,27.9769,-114.0611,57.72,72,6,12.88,MX,1742367241
192,longyearbyen,78.2186,15.6401,-0.56,71,40,6.91,SJ,1742367243
193,katsuura,35.1333,140.3,47.37,68,100,13.51,JP,1742367244
194,kailua-kona,19.6406,-155.9956,72.55,96,98,1.01,US,1742367245
195,dosso,13.049,3.1937,81.09,8,100,9.28,NE,1742367246
196,achacachi,-16.05,-68.6833,41.14,88,100,6.46,BO,1742367247
197,richards bay,-28.783,32.0377,75.34,78,95,8.68,ZA,1742367248
198,tura,25.5198,90.2201,92.5,11,0,7.11,IN,1742367249
199,kayyerkan,69.3786,87.7439,12.27,92,100,13.69,RU,1742367251
200,chonchi,-42.6128,-73.8092,45.12,80,7,1.83,CL,1742367252
201,cabo san lucas,22.8909,-109.9124,68.76,62,0,0.92,MX,1742367138
202,ketchikan,55.3422,-131.6461,40.98,91,100,21.85,US,1742367254
203,lal bahadur nagar,17.3477,78.5576,97.11,23,3,11.5,IN,1742367255
204,sur,22.5667,59.5289,81.0,41,0,8.39,OM,1742367256
205,glucholazy,50.315,17.3836,31.75,42,5,3.22,PL,1742367258
206,umm kaddadah,13.6017,26.6876,86.23,9,76,24.32,SD,1742367259
207,lebu,-37.6167,-73.65,52.66,92,61,14.47,CL,1742367260
208,mwinilunga,-11.7358,24.4293,66.69,87,100,7.11,ZM,1742367261
209,sorong,-0.8833,131.25,83.61,71,100,6.13,ID,1742367262
210,veinticinco de mayo,-35.4323,-60.1727,65.98,96,8,3.0,AR,1742367264
211,ust-nera,64.5667,143.2,0.03,95,100,1.74,RU,1742367265
212,koupela,12.1794,-0.3517,86.07,21,35,6.51,BF,1742367267
213,igrim,63.1906,64.4162,23.22,74,6,8.41,RU,1742367268
214,krasnyy chikoy,50.3643,108.7512,44.65,65,100,3.98,RU,1742367270
215,ancud,-41.8697,-73.8203,51.17,83,96,3.94,CL,1742367271
216,mukalla,14.5425,49.1242,82.44,59,0,8.48,YE,1742367272
217,mejit,10.2753,170.8646,80.38,82,43,23.24,MH,1742367273
218,lycksele,64.5954,18.6735,30.07,69,75,5.75,SE,1742367275
219,hotan,37.0997,79.9269,57.6,11,87,9.91,CN,1742367277
220,palmer,42.1584,-72.3287,32.45,80,0,3.44,US,1742367280
221,kununurra,-15.7667,128.7333,100.38,41,20,4.61,AU,1742367281
222,san luis de la loma,17.2706,-100.8939,76.24,55,9,6.02,MX,1742367282
223,kavieng,-2.5744,150.7967,84.52,71,35,13.51,PG,1742367283
224,lauro de freitas,-12.8944,-38.3272,80.62,74,40,5.75,BR,1742367284
225,vadso,70.0744,29.7487,23.16,68,20,14.97,NO,1742367285
226,rabo de peixe,37.8,-25.5833,51.31,58,40,24.16,PT,1742367287
227,miyaly,48.8844,53.7836,49.98,80,100,11.81,KZ,1742367288
228,barah,13.7,30.3667,88.47,12,89,14.58,SD,1742367289
229,rabaul,-4.1967,152.1721,84.81,64,80,3.27,PG,1742367290
230,aasiaat,68.7098,-52.8699,2.12,95,42,4.88,GL,1742367291
231,puerto real,36.5282,-6.1901,55.56,94,0,4.61,ES,1742367292
232,sabang,5.8933,95.3214,83.53,75,96,18.99,ID,1742367294
233,morehead city,34.7229,-76.726,52.99,68,0,3.44,US,1742367295
234,miringa,10.7312,12.1463,79.9,6,88,7.38,NG,1742367296
235,saipan,15.1355,145.701,86.7,77,40,13.8,MP,1742367297
236,aoulef,26.9667,1.0833,69.01,10,0,7.27,DZ,1742367298
237,santiago de cao,-7.9589,-79.2392,66.33,88,75,6.91,PE,1742367299
238,zheleznogorsk,52.331,35.3711,30.52,74,100,9.75,RU,1742367301
239,aguazul,5.1728,-72.5471,72.19,84,38,3.44,CO,1742367302
240,griffith,41.5284,-87.4237,62.46,57,0,9.22,US,1742367303
241,riachao das neves,-11.7461,-44.91,75.15,48,95,3.0,BR,1742367304
242,piacabucu,-10.4056,-36.4344,78.87,75,84,6.2,BR,1742367305
243,amga,60.8953,131.9608,17.22,74,100,2.39,RU,1742367306
244,margate,51.3813,1.3862,39.87,83,0,8.39,GB,1742367308
245,happy valley-goose bay,53.3168,-60.3315,14.31,52,20,6.91,CA,1742367309
246,tindouf,27.6711,-8.1474,55.85,62,0,8.05,DZ,1742367310
247,general roca,-39.0333,-67.5833,63.25,47,100,10.27,AR,1742367311
248,las vegas,36.175,-115.1372,53.96,23,0,14.97,US,1742367219
249,fada,7.25,4.0667,80.04,86,96,3.71,NG,1742367313
250,blenheim,-41.516,173.9528,62.53,58,91,1.99,NZ,1742367315
251,mme-bafumen,6.3333,10.2333,74.57,45,100,1.45,CM,1742367316
252,orange,33.7,-117.7675,54.75,69,0,1.99,US,1742367253
253,benguela,-12.5763,13.4055,79.97,80,100,2.82,AO,1742367318
254,punta arenas,-53.15,-70.9167,53.71,62,75,14.97,CL,1742367319
255,tolanaro,-25.0319,46.9987,77.23,61,15,14.5,MG,1742367320
256,salavat,53.3837,55.9077,32.67,100,100,7.72,RU,1742367321
257,marsh harbour,26.5412,-77.0636,68.29,56,6,14.9,BS,1742367323
258,cambria,35.5641,-121.0808,46.06,89,8,1.99,US,1742367324
259,coruripe,-10.1256,-36.1756,76.73,82,0,6.17,BR,1742367325
260,ain sefra,32.75,-0.5833,49.33,73,0,5.28,DZ,1742367326
261,mount isa,-20.7333,139.5,85.77,66,100,12.66,AU,1742367327
262,fale old settlement,-9.3852,-171.2468,82.71,76,100,9.08,TK,1742367328
263,kerikeri,-35.2268,173.9474,61.3,81,87,6.31,NZ,1742367330
264,burang,30.25,81.1667,27.73,49,100,8.3,CN,1742367331
265,tlahualilo de zaragoza,26.1167,-103.45,67.24,12,8,10.98,MX,1742367332
266,petrinja,45.4375,16.29,36.81,46,0,1.25,HR,1742367333
267,urangan,-25.3,152.9,73.99,87,100,17.63,AU,1742367334
268,rongelap,11.1635,166.8941,80.2,83,99,23.13,MH,1742367335
269,nikolayevsk-on-amure,53.1406,140.73,21.33,83,100,1.41,RU,1742367337
270,mtwara,-10.2667,40.1833,82.36,74,19,9.17,TZ,1742367338
271,chandbali,20.7833,86.7667,98.31,33,2,10.94,IN,1742367339
272,dalai,45.5,124.3,50.61,25,13,10.18,CN,1742367340
273,jericho,31.8667,35.45,67.66,51,0,6.04,PS,1742367341
274,callao,-12.0667,-77.15,71.73,83,20,8.05,PE,1742367342
275,smirnykh,49.75,142.8333,25.56,72,100,3.33,RU,1742367345
276,sitka,57.0531,-135.33,44.49,57,100,18.41,US,1742367346
277,kas,36.2018,29.6377,60.08,61,100,16.42,TR,1742367347
278,nova vicosa,-17.8919,-39.3719,73.83,85,86,5.77,BR,1742367348
279,kristiansund,63.1115,7.732,43.45,87,75,20.71,NO,1742367349
280,dalby,-27.1833,151.2667,74.37,56,100,17.49,AU,1742367350
281,greymouth,-42.4667,171.2,58.42,73,0,5.57,NZ,1742367352
282,tralee,52.2704,-9.7026,41.25,100,100,6.91,IE,1742367353
283,qashar,53.3906,62.9297,47.05,81,100,11.32,KZ,1742367355
284,anloga,5.7947,0.8973,82.31,81,54,12.64,GH,1742367356
285,coquimbo,-29.9533,-71.3436,57.97,96,0,2.06,CL,1742367357
286,baharly,38.4362,57.4316,86.56,9,28,1.45,TM,1742367359
287,stepnoye,51.4,46.8667,35.87,73,100,8.77,RU,1742367360
288,casper,42.8666,-106.3131,27.72,90,100,11.5,US,1742367361
289,imbituba,-28.24,-48.6703,65.23,93,30,7.96,BR,1742367362
290,flin flon,54.7682,-101.865,-3.84,100,100,4.25,CA,1742367363
291,kismayo,-0.3582,42.5454,85.77,67,3,8.28,SO,1742367364
292,torghay,49.6339,63.4981,46.31,87,100,14.32,KZ,1742367366
293,fortuna,40.5982,-124.1573,42.35,94,0,6.91,US,1742367367
294,timbuktu,16.7735,-3.0074,77.92,14,6,6.58,ML,1742367368
295,kralendijk,12.15,-68.2667,78.78,83,20,5.75,BQ,1742367369
296,saint-francois,46.4154,3.9054,44.65,80,0,6.62,FR,1742367370
297,bad staffelstein,50.102,11.0013,35.71,57,0,1.01,DE,1742367371
298,tamanrasset,22.785,5.5228,71.51,20,40,0.0,DZ,1742367372
299,arteche,12.2645,125.4048,78.87,89,100,16.26,PH,1742367374
300,zhezqazghan,47.7833,67.7667,36.18,87,0,11.18,KZ,1742367375
301,phalodi,27.1333,72.3667,92.53,9,0,9.71,IN,1742367376
302,jutai,-5.1833,-68.9,70.88,95,97,0.74,BR,1742367377
303,puerto baquerizo moreno,-0.9,-89.6,79.86,80,16,12.35,EC,1742367378
304,jinxiang,27.4327,120.6062,53.44,67,32,8.37,CN,1742367379
305,dhemaji,27.4833,94.5833,89.04,18,0,8.99,IN,1742367380
306,pali,25.7667,73.3333,92.8,12,0,9.51,IN,1742367382
307,kaintragarh,20.7167,84.5333,106.88,13,0,2.1,IN,1742367383
308,retiro,-34.5833,-58.3833,73.22,83,0,8.01,AR,1742367384
309,puerto cabezas,14.0351,-83.3888,73.4,91,32,6.58,NI,1742367385
310,crane,31.3974,-102.3501,59.77,12,29,24.94,US,1742367386
311,keren,15.7778,38.4581,84.54,17,88,3.49,ER,1742367388
312,olonkinbyen,70.9221,-8.7187,15.76,54,100,3.0,SJ,1742367389
313,yarrawonga,-36.0167,146.0,91.45,21,81,12.3,AU,1742367390
314,hithadhoo,-0.6,73.0833,82.58,71,100,2.82,MV,1742367391
315,el calafate,-50.3408,-72.2768,50.61,87,87,17.65,AR,1742367392
316,mokhsogollokh,61.4681,128.9203,19.71,82,100,5.5,RU,1742367394
317,vila franca do campo,37.7167,-25.4333,52.21,74,100,21.77,PT,1742367395
318,ambatofinandrahana,-20.55,46.8,61.65,80,99,10.22,MG,1742367396
319,north bend,43.4065,-124.2243,43.16,90,100,5.17,US,1742367397
320,bela,25.9333,81.9833,94.46,8,0,10.07,IN,1742367398
321,lianzhou,24.7811,112.3825,71.15,28,7,4.92,CN,1742367399
322,bridgewater,44.3835,-64.5155,35.67,91,100,6.91,CA,1742367400
323,brokopondo,4.75,-55.1667,75.7,86,78,6.53,SR,1742367402
324,prince rupert,54.3161,-130.3201,44.29,66,100,28.77,CA,1742367403
325,port hedland,-20.3167,118.5667,93.25,66,41,11.5,AU,1742367404
326,cascais,38.6979,-9.4215,59.5,78,100,32.7,PT,1742367405
327,norfolk,42.1668,-71.2495,37.58,74,0,0.0,US,1742367407
328,kuna,43.4918,-116.4201,32.56,67,0,1.01,US,1742367360
329,chui,-33.6971,-53.4616,61.81,95,0,4.47,UY,1742367410
330,hosdurga,13.7981,76.2861,91.29,30,10,3.87,IN,1742367411
331,grande prairie,55.1667,-118.8027,28.58,59,0,9.22,CA,1742367135
332,dryden,49.7833,-92.7503,25.09,58,20,8.05,CA,1742367413
333,tocoa,15.6833,-86.0,71.1,100,90,1.05,HN,1742367414
334,touros,-5.1989,-35.4608,77.79,85,35,7.99,BR,1742367416
335,barda,40.3744,47.1267,60.08,46,100,8.34,AZ,1742367417
336,ngereklmadel,7.4883,134.4856,82.49,83,75,8.05,PW,1742367418
337,bereznehuvate,47.3078,32.8499,37.15,47,9,9.4,UA,1742367419
338,yatou,37.15,122.3833,52.66,31,6,11.3,CN,1742367420
339,soc trang,9.6033,105.98,94.6,37,100,15.37,VN,1742367421
340,celestun,20.8667,-90.4,69.06,70,0,15.46,MX,1742367422
341,tadmur,34.5608,38.2805,62.19,43,95,18.43,SY,1742367424
342,bhuj,23.2667,69.6667,89.44,15,0,9.98,IN,1742367425
343,atafu village,-8.5421,-172.5159,82.51,77,13,9.42,TK,1742367426
344,belyy yar,53.6039,91.3903,48.09,76,0,15.66,RU,1742367427
345,machico,32.7,-16.7667,65.01,83,75,28.77,PT,1742367428
346,labytnangi,66.6572,66.4183,13.32,89,24,7.52,RU,1742367429
347,oak bay,48.4496,-123.3026,45.46,87,100,15.01,CA,1742367430
348,laguna,38.421,-121.4238,44.94,80,0,3.44,US,1742367432
349,colonia,50.9333,6.95,40.95,39,0,5.75,DE,1742367433
350,enewetak,11.3474,162.3373,80.13,82,100,18.68,MH,1742367434
351,sinabang,2.4803,96.3801,86.77,66,38,2.39,ID,1742367435
352,jayapura,-2.5333,140.7,90.79,74,23,6.15,ID,1742367436
353,santa vitoria,-18.8386,-50.1214,71.02,88,100,3.51,BR,1742367437
354,salym,60.0625,71.4789,28.27,76,100,4.52,RU,1742367438
355,ponta delgada,37.7333,-25.6667,52.52,58,40,24.16,PT,1742367440
356,murwara,23.85,80.4,94.15,12,0,4.47,IN,1742367442
357,antonio enes,-16.2325,39.9086,80.31,75,98,5.57,MZ,1742367443
358,maitum,6.0392,124.4986,81.54,83,100,1.86,PH,1742367444
359,bucerias,20.75,-105.3333,69.98,86,0,5.46,MX,1742367445
360,holualoa,19.6228,-155.9522,68.83,96,99,1.99,US,1742367447
361,mildura,-34.2,142.15,91.08,20,17,12.59,AU,1742367448
362,sola,-13.8833,167.55,84.87,79,75,9.22,VU,1742367449
363,tambacounda,13.7539,-13.7586,78.85,69,0,6.91,SN,1742367450
364,medicine hat,50.0501,-110.6683,25.72,76,0,8.05,CA,1742367451
365,horta,38.5333,-28.6333,54.01,71,40,26.46,PT,1742367453
366,illizi,26.4833,8.4667,75.7,10,100,3.36,DZ,1742367454
367,krasnoturansk,54.3186,91.5639,36.72,100,100,5.84,RU,1742367455
368,bardai,11.65,7.2333,75.7,6,100,8.59,NG,1742367456
369,mandalgovi,45.7625,106.2708,46.24,14,0,16.84,MN,1742367457
370,swakopmund,-22.6833,14.5333,73.22,87,100,9.1,NA,1742367458
371,san luis,-33.295,-66.3356,69.03,58,0,12.97,AR,1742367459
372,nuuk,64.1835,-51.7216,20.01,93,100,10.36,GL,1742367461
373,mastic beach,40.7668,-72.8521,44.4,90,0,3.44,US,1742367462
374,bubaque,11.2833,-15.8333,73.15,76,99,11.41,GW,1742367463
375,sol'-iletsk,51.1631,54.9918,44.67,86,100,7.54,RU,1742367464
376,tofol,5.3248,163.0078,82.15,80,100,18.3,FM,1742367465
377,souda,35.4844,24.0744,49.33,76,75,23.02,GR,1742367466
378,calchaqui,-29.8877,-60.287,65.43,51,0,6.29,AR,1742367467
379,miyako,39.6367,141.9525,36.75,84,100,7.67,JP,1742367469
380,chongwe,-15.3292,28.682,67.89,74,38,9.64,ZM,1742367470
381,san nicolas de los arroyos,-33.3358,-60.2252,64.54,77,0,3.78,AR,1742367471
382,northam,51.0333,-4.2167,40.48,84,100,9.4,GB,1742367472
383,khotyn,48.4833,26.5,37.13,46,77,14.7,UA,1742367473
384,bodo,67.28,14.405,30.24,81,75,21.85,NO,1742367474
385,rosa zarate,0.3333,-79.4667,74.32,95,100,0.76,EC,1742367476
386,suwayr,30.1171,40.3893,76.1,26,0,9.44,SA,1742367477
387,ivins,37.1686,-113.6794,44.15,38,0,3.0,US,1742367325
388,tangalle,6.024,80.7911,85.64,65,68,10.0,LK,1742367479
389,queenstown,-31.8976,26.8753,72.37,51,0,1.97,ZA,1742367480
390,zaozersk,69.4005,32.4476,22.32,70,85,8.01,RU,1742367481
391,cacu,-18.5567,-51.1308,69.6,92,97,2.46,BR,1742367484
392,corinto,37.9407,22.9573,47.89,62,95,19.6,GR,1742367485
393,nort-sur-erdre,47.4333,-1.5,50.25,85,100,9.82,FR,1742367487
394,kone,-21.0595,164.8658,79.07,85,61,3.33,NC,1742367488
395,havre,49.5833,0.3333,46.8,70,0,9.22,FR,1742367489
396,lerwick,60.1545,-1.1494,40.71,77,45,9.28,GB,1742367490
397,menongue,-14.6585,17.691,67.82,87,100,7.29,AO,1742367491
398,feldioara,45.8167,25.6,32.59,68,8,4.36,RO,1742367492
399,gaspe,48.8334,-64.4819,28.62,80,100,3.44,CA,1742367493
400,toppenish,46.3774,-120.3087,38.08,63,47,2.08,US,1742367496
401,ghadamis,30.1337,9.5007,67.26,30,0,13.65,LY,1742367497
402,tual,-5.6667,132.75,83.8,76,96,9.73,ID,1742367499
403,malvern,34.3623,-92.813,66.92,79,84,15.48,US,1742367500
404,ceelbuur,4.685,46.6176,89.87,42,7,13.09,SO,1742367502
405,camocim,-2.9022,-40.8411,76.23,86,92,3.71,BR,1742367503
406,yeppoon,-23.1333,150.7333,74.28,88,100,13.02,AU,1742367504
407,ocean city,39.2776,-74.5746,39.99,81,3,4.63,US,1742367505
408,sergach,55.5308,45.4661,30.42,34,0,5.86,RU,1742367506
409,buka,40.8108,69.1986,72.0,19,0,0.96,UZ,1742367507
410,jabor,5.921,169.6434,81.84,83,100,21.92,MH,1742367508
411,tsiombe,-25.3,45.4833,78.03,52,0,16.8,MG,1742367510
412,shambu,9.5667,37.1,69.51,23,99,4.12,ET,1742367511
413,beyneu,45.3167,55.2,63.12,48,99,9.13,KZ,1742367512
414,tlaltenango de sanchez roman,21.7833,-103.3167,55.18,39,0,3.15,MX,1742367513
415,loreto,22.2667,-101.9667,52.52,32,0,2.64,MX,1742367515
416,trondheim,63.4305,10.3951,39.92,91,100,3.0,NO,1742367516
417,esmeralda,21.8525,-78.1169,63.36,74,0,4.81,CU,1742367517
418,ulsteinvik,62.3432,5.8487,42.31,90,100,3.0,NO,1742367518
419,tvoroyri,61.5556,-6.8111,44.01,68,100,9.62,FO,1742367519
420,vilyuysk,63.7553,121.6247,28.09,94,100,5.35,RU,1742367520
421,ukholovo,53.7929,40.4892,28.6,61,0,6.46,RU,1742367522
422,argo,37.6333,22.7333,43.93,61,66,16.71,GR,1742367523
423,nizhneudinsk,54.9076,99.0276,48.76,73,100,10.87,RU,1742367524
424,kencong,-8.2833,113.3667,83.55,71,100,10.27,ID,1742367525
425,kristinestad,62.2743,21.376,34.41,74,15,16.13,FI,1742367526
426,krasnystaw,50.9846,23.1742,36.86,76,6,10.0,PL,1742367527
427,qamdo,31.1667,97.2333,35.91,47,65,5.37,CN,1742367528
428,adrar,20.5022,-10.0711,69.85,20,100,10.25,MR,1742367529
429,mamit,23.9333,92.4833,86.83,37,40,10.36,IN,1742367531
430,manacapuru,-3.2997,-60.6206,75.74,93,100,4.14,BR,1742367532
431,alotau,-10.3069,150.4462,84.6,68,100,4.14,PG,1742367533
432,castillos,-34.1667,-53.8333,60.89,96,0,3.69,UY,1742367534
433,nova sintra,14.8667,-24.7167,69.73,84,7,27.11,CV,1742367535
434,arraial do cabo,-22.9661,-42.0278,74.28,89,100,6.26,BR,1742367536
435,buenavista,8.9769,125.4089,78.85,88,100,4.47,PH,1742367537
436,suoyarvi,62.0833,32.35,31.78,79,30,14.47,RU,1742367539
437,bangassou,4.7413,22.8184,75.51,73,100,5.08,CF,1742367540
438,opuwo,-18.0607,13.84,67.66,91,100,10.67,NA,1742367541
439,empalme,27.9667,-110.8167,62.4,40,100,7.52,MX,1742367542
440,thames,-37.1333,175.5333,57.38,96,100,3.6,NZ,1742367543
441,balaipungut,1.05,101.2833,79.5,89,100,1.41,ID,1742367544
442,coahuayana de hidalgo,18.7,-103.6583,67.89,62,5,3.98,MX,1742367545
443,bonnyville,54.2668,-110.735,18.28,89,59,6.51,CA,1742367547
444,roseburg north,43.2645,-123.3033,40.28,81,0,0.0,US,1742367548
445,nandu,22.8525,110.8233,72.57,30,3,4.5,CN,1742367549
446,champerico,14.3,-91.9167,81.09,79,29,6.89,GT,1742367550
447,malabar,-33.9667,151.25,81.16,65,0,25.32,AU,1742367551
448,yelets,52.6237,38.5017,30.31,55,0,7.09,RU,1742367552
449,szczecinek,53.7079,16.6994,36.79,55,5,7.92,PL,1742367554
450,sidi ifni,29.3797,-10.173,56.77,88,42,0.87,MA,1742367555
451,baiti,13.745,-14.7482,72.54,61,15,6.67,SN,1742367556
452,peterhead,57.5058,-1.7981,39.72,78,5,12.53,GB,1742367557
453,severo-yeniseyskiy,60.3725,93.0408,31.48,95,100,9.69,RU,1742367558
454,sierra grande,-41.606,-65.3557,57.78,56,100,18.48,AR,1742367560
455,formosa do rio preto,-11.0483,-45.1931,71.87,76,100,3.38,BR,1742367561
456,san jose,37.3394,-121.895,47.95,80,0,1.99,US,1742367121
457,douentza,14.9951,-2.9517,79.29,16,9,0.92,ML,1742367563
458,bakanas,44.8081,76.2772,64.0,21,0,9.48,KZ,1742367564
459,rechytsa,52.3617,30.3916,34.57,98,100,9.22,BY,1742367565
460,bouna,9.2667,-3.0,79.03,74,82,9.66,CI,1742367566
461,marotta,43.764,13.1477,40.98,63,2,1.99,IT,1742367568
462,halikko,60.4,23.0833,42.31,61,8,5.01,FI,1742367569
463,essaouira,31.5125,-9.77,53.1,100,20,4.61,MA,1742367570
464,panama city beach,30.1766,-85.8055,59.02,97,3,7.09,US,1742367571
465,victorica,-36.2151,-65.4359,64.45,70,0,8.25,AR,1742367572
466,loango,-4.6719,11.8312,76.66,94,75,4.61,CG,1742367573
467,revda,56.801,59.9303,32.97,92,100,6.42,RU,1742367528
468,wongsorejo,-7.9908,114.4009,81.3,84,100,10.04,ID,1742367576
469,basoko,1.2391,23.616,71.78,95,100,3.18,CD,1742367577
470,baise city,23.8997,106.6133,61.57,40,100,6.08,CN,1742367578
471,aykhal,66.0,111.5,25.0,87,100,17.45,RU,1742367579
472,kabare,-2.4683,28.8242,67.3,88,100,2.37,CD,1742367580
473,east ballina,-28.8667,153.5833,74.25,68,66,9.48,AU,1742367582
474,redding,40.5865,-122.3917,41.61,81,65,1.01,US,1742367583
475,al ghayzah,16.2079,52.176,84.45,51,0,6.87,YE,1742367584
476,mhasvad,17.6333,74.7833,93.72,16,0,7.18,IN,1742367585
477,pangody,65.85,74.4859,16.09,86,10,12.62,RU,1742367586
478,lindale,32.5157,-95.4094,66.76,75,75,20.71,US,1742367588
479,alzamay,55.5562,98.6644,48.25,78,100,13.67,RU,1742367589
480,oriximina,-1.7656,-55.8661,75.72,91,100,2.73,BR,1742367590
481,port-vila,-17.7338,168.3219,83.8,74,40,14.97,VU,1742367591
482,demopolis,32.5176,-87.8364,57.15,77,0,5.75,US,1742367301
483,antsohihy,-14.8796,47.9875,85.87,62,95,10.94,MG,1742367593
484,natal,-5.795,-35.2094,77.22,94,20,4.61,BR,1742367595
485,arteaga,18.4667,-102.4167,67.6,41,0,3.06,MX,1742367596
486,harlingen,26.1906,-97.6961,72.05,87,40,19.57,US,1742367597
487,hammerfest,70.6634,23.6821,25.25,63,75,19.57,NO,1742367598
488,ola,59.5833,151.2833,11.41,94,100,3.98,RU,1742367599
489,mata-utu,-13.2816,-176.1745,83.57,77,100,8.86,WF,1742367600
490,inongo,-1.95,18.2667,73.47,90,100,1.16,CD,1742367602
491,praia,14.9215,-23.5087,68.54,77,20,10.36,CV,1742367603
492,dampit,-8.2116,112.7493,72.46,96,100,2.21,ID,1742367604
493,camargo,27.6667,-105.1667,61.92,19,99,9.33,MX,1742367605
494,labasa,-16.4167,179.3833,78.46,87,5,5.59,FJ,1742367606
495,mirnyy,62.5353,113.9611,32.74,98,100,9.75,RU,1742367607
496,mossel bay,-34.1831,22.146,73.33,73,2,4.38,ZA,1742367608
497,nemuro,43.3236,145.575,31.5,73,99,10.98,JP,1742367610
498,trevelin,-43.0858,-71.4639,44.31,73,7,4.59,AR,1742367611
499,hadibu,12.65,54.0333,83.73,58,0,11.39,YE,1742367612
500,namtsy,62.7161,129.6658,14.88,84,100,5.84,RU,1742367613
501,hovd,48.0056,91.6419,26.6,55,23,5.39,MN,1742367614
502,nadi,-17.8,177.4167,78.8,83,75,9.22,FJ,1742367615
503,salvador,13.8333,-88.9167,65.71,85,2,3.38,SV,1742367617
504,zelenogorskiy,55.0333,87.0,44.26,80,37,9.04,RU,1742367618
505,alakurtti,66.9672,30.3491,23.43,84,9,16.51,RU,1742367619
506,yaren,-0.5472,166.916,80.58,86,24,14.32,NR,1742367620
507,inarajan village,13.2736,144.7484,86.99,84,100,15.68,GU,1742367621
508,malango,-2.9627,119.9001,76.86,90,80,2.39,ID,1742367624
509,sakaraha,-22.9,44.5333,78.64,51,0,8.08,MG,1742367625
510,jincheng,35.5022,112.8328,59.47,12,0,14.41,CN,1742367626
511,kem',64.9555,34.5793,26.87,79,100,25.14,RU,1742367627
512,fabens,31.5023,-106.1586,49.91,19,0,19.44,US,1742367629
513,baruun-urt,46.6806,113.2792,52.39,13,0,15.17,MN,1742367630
514,agua prieta,31.3,-109.5667,41.79,20,0,5.75,MX,1742367631
515,portland,45.5234,-122.6762,47.03,85,100,3.0,US,1742367482
516,hirara,24.8,125.2833,62.46,48,40,19.57,JP,1742367633
517,afif,23.9065,42.9172,81.55,21,0,22.59,SA,1742367634
518,arafat,39.0344,44.6198,46.56,62,29,6.42,IR,1742367635
519,sao paulo de olivenca,-3.3783,-68.8725,72.37,100,100,1.07,BR,1742367637
520,sisli,41.0605,28.9872,41.77,45,75,21.85,TR,1742367638
521,sydney,-33.8679,151.2073,80.74,65,0,25.32,AU,1742367343
522,broome,42.2506,-75.833,40.39,64,4,3.49,US,1742367640
523,sao raimundo das mangabeiras,-7.0219,-45.4811,74.37,87,79,2.26,BR,1742367641
524,monticello,45.3055,-93.7941,35.94,77,100,17.27,US,1742367644
525,itaituba,-4.2761,-55.9836,74.68,99,97,1.54,BR,1742367645
526,brookings,44.3114,-96.7984,33.8,80,100,14.97,US,1742367646
527,upata,8.0086,-62.3989,72.0,86,100,7.29,VE,1742367648
528,ankazoabo,-22.2833,44.5167,78.22,58,0,7.54,MG,1742367650
529,marquelia,16.5833,-98.8167,76.59,72,0,4.27,MX,1742367651
530,semera,11.501,41.201,82.62,53,99,14.79,ET,1742367653
531,carutapera,-1.195,-46.02,75.02,94,50,3.51,BR,1742367654
532,conception bay south,47.4999,-52.9981,47.35,96,100,10.49,CA,1742367656
533,san sebastian de la gomera,28.0916,-17.1133,62.96,67,75,10.36,ES,1742367657
534,port pirie,-33.1833,138.0167,91.63,20,14,15.82,AU,1742367658
535,bhimunipatnam,17.8833,83.4333,89.11,54,7,15.35,IN,1742367659
536,kingston,17.997,-76.7936,77.95,61,20,8.05,JM,1742367517
537,saint croix,17.7397,-64.7388,72.95,84,56,7.27,VI,1742367662
538,katsuren-haebaru,26.3369,127.8719,61.18,52,75,11.5,JP,1742367663
539,kaa-khem,51.6833,94.7333,30.27,79,62,1.74,RU,1742367664
540,kindu,-2.95,25.95,69.62,99,100,1.3,CD,1742367665
541,harstad,68.799,16.5293,28.15,88,100,10.0,NO,1742367666
542,debre werk',10.6667,38.1667,68.81,34,89,4.25,ET,1742367667
543,san antonio de pale,-1.4014,5.6325,82.09,73,86,10.54,GQ,1742367668
544,santo antonio do ica,-3.1022,-67.9397,72.05,98,100,1.57,BR,1742367670
545,glencoe,-28.1783,30.147,60.06,93,100,1.39,ZA,1742367671
546,cururupu,-1.8283,-44.8683,72.55,100,100,0.31,BR,1742367672
547,sabha,27.0377,14.4283,70.56,26,2,18.45,LY,1742367673
548,smithers,54.7804,-127.1743,37.72,52,100,5.75,CA,1742367674
549,santa cruz,-17.8,-63.1667,74.66,94,75,11.5,BO,1742367629
550,egilsstadir,65.2653,-14.3948,31.91,93,0,5.75,IS,1742367677
551,bunia,1.5667,30.25,65.62,93,100,6.13,CD,1742367678
552,codrington,-38.2667,141.9667,70.12,43,0,13.78,AU,1742367679
553,fuglafjordur,62.244,-6.814,39.72,81,100,4.9,FO,1742367680
554,zykovo,55.9519,93.1461,48.78,77,99,13.73,RU,1742367681
555,shadegan,30.6497,48.6647,83.53,22,8,9.86,IR,1742367682
556,znamenskoye,57.1281,73.8282,37.11,100,100,5.28,RU,1742367684
557,gunjur,13.2019,-16.7339,68.07,83,0,5.75,GM,1742367685
558,aur,8.1499,171.1687,81.25,82,100,22.95,MH,1742367686
559,calabozo,8.9242,-67.4293,81.81,63,100,5.66,VE,1742367687
560,teknaf,20.8624,92.3058,84.72,65,42,11.1,BD,1742367688
561,dunn,44.95,-91.8835,37.38,83,40,9.22,US,1742367689
562,alofi,-19.0595,-169.9187,80.49,89,100,4.61,NU,1742367691
563,lityn,49.3251,28.0809,35.08,74,96,13.78,UA,1742367692
564,tam ky,15.5667,108.4833,68.49,84,100,10.51,VN,1742367693
565,bonthe,7.5264,-12.505,75.02,93,99,6.2,SL,1742367694
566,ambon,-3.6954,128.1814,89.87,95,40,4.61,ID,1742367695
567,san blas,21.5167,-105.2667,63.86,84,0,4.34,MX,1742367696
568,baoshan,46.5586,131.4244,38.91,45,100,11.43,CN,1742367698
569,swan hill,-35.3378,143.5544,92.17,16,4,11.7,AU,1742367699
570,sinazongwe,-17.2614,27.4618,71.01,80,100,7.25,ZM,1742367700
571,yoloten,37.2989,62.3597,83.37,11,0,14.47,TM,1742367701
572,glace bay,46.1969,-59.957,34.25,96,100,13.8,CA,1742367702
573,naze,28.3667,129.4833,54.52,66,100,13.91,JP,1742367705
574,kilindoni,-7.9139,39.6668,83.53,72,52,13.22,TZ,1742367706
575,kattivakkam,13.2167,80.3167,94.1,60,10,12.93,IN,1742367707
576,grange,-34.9,138.4833,91.53,14,0,8.05,AU,1742367708
577,taishan,22.2514,112.7799,74.34,21,9,9.57,CN,1742367709
578,villa berthet,-27.2917,-60.4126,67.48,49,0,5.37,AR,1742367710
579,huanggang,23.677,116.9996,69.17,38,5,11.72,CN,1742367712
580,bukama,-9.2,25.85,71.02,95,100,2.66,CD,1742367713
